[{"PROVIDER OR FACILITY NAME":"ORLICK ALEC","NPI":1962844803.0,"PROFESSION OR SERVICE":"NURSE PRACTITIONER","PROVIDER SPECIALTY":"CHILD PSYCHIATRY","SERVICE ADDRESS":"1029 41ST AVE","CITY":"LONG ISLAND CITY","STATE":"NY","ZIP CODE":"11101-7346","COUNTY":"QUEENS","TELEPHONE":7183616266.0,"LATITUDE":40.75491,"LONGITUDE":-73.94626},{"PROVIDER OR FACILITY NAME":"STAHL TIMOTHY GERARD","NPI":1659038941.0,"PROFESSION OR SERVICE":"CLINICAL PSYCHOLOGIST","PROVIDER SPECIALTY":null,"SERVICE ADDRESS":"1090 AMSTERDAM AVE DEPARTMENT OF PSYCHIATRY","CITY":"NEW YORK","STATE":"NY","ZIP CODE":"10025-1737","COUNTY":"NEW YORK","TELEPHONE":2125233996.0,"LATITUDE":40.80528,"LONGITUDE":-73.96232},{"PROVIDER OR FACILITY NAME":"DIGIOVANNI PAUL ANTHONY","NPI":1013054048.0,"PROFESSION OR SERVICE":"OCCUPATIONAL THERAPIST","PROVIDER SPECIALTY":null,"SERVICE ADDRESS":"464 OAKLAND AVE","CITY":"STATEN ISLAND","STATE":"NY","ZIP CODE":"10310-2133","COUNTY":"RICHMOND","TELEPHONE":9175252146.0,"LATITUDE":40.63132,"LONGITUDE":-74.11061},{"PROVIDER OR FACILITY NAME":"ELIO ESPIRIDION PECAOCO JR","NPI":1235176066.0,"PROFESSION OR SERVICE":"PHYSICIAN","PROVIDER SPECIALTY":"PSYCHIATRY (NOT CHILD)","SERVICE ADDRESS":"2601 OCEAN PKWY RM 303","CITY":"BROOKLYN","STATE":"NY","ZIP CODE":"11235-7745","COUNTY":"KINGS","TELEPHONE":7186155030.0,"LATITUDE":40.5866,"LONGITUDE":-73.96576},{"PROVIDER OR FACILITY NAME":"CONNOR SHARON LERNER","NPI":1871871152.0,"PROFESSION OR SERVICE":"CLINICAL SOCIAL WORKER","PROVIDER SPECIALTY":null,"SERVICE ADDRESS":"34 W 139TH ST","CITY":"NEW YORK","STATE":"NY","ZIP CODE":"10037-1508","COUNTY":"NEW YORK","TELEPHONE":null,"LATITUDE":40.81567,"LONGITUDE":-73.93683},{"PROVIDER OR FACILITY NAME":"CHERRY STEPHANIE A","NPI":1134422264.0,"PROFESSION OR SERVICE":"CLINICAL SOCIAL WORKER","PROVIDER SPECIALTY":null,"SERVICE ADDRESS":"139 CENTRE ST","CITY":"NEW YORK","STATE":"NY","ZIP CODE":"10013-4552","COUNTY":"NEW YORK","TELEPHONE":6464507748.0,"LATITUDE":40.71723,"LONGITUDE":-74.00072},{"PROVIDER OR FACILITY NAME":"DELGADO JENNIFER CAROLYNE","NPI":1326515735.0,"PROFESSION OR SERVICE":"CLINICAL SOCIAL WORKER","PROVIDER SPECIALTY":null,"SERVICE ADDRESS":"170 BROWN PL FL 4","CITY":"BRONX","STATE":"NY","ZIP CODE":"10454-4140","COUNTY":"BRONX","TELEPHONE":2122064161.0,"LATITUDE":40.80641,"LONGITUDE":-73.92101},{"PROVIDER OR FACILITY NAME":"MARKIEWICZ ALLISON","NPI":1750898409.0,"PROFESSION OR SERVICE":"CLINICAL SOCIAL WORKER","PROVIDER SPECIALTY":null,"SERVICE ADDRESS":"170 BROWN PL","CITY":"BRONX","STATE":"NY","ZIP CODE":"10454-4140","COUNTY":"BRONX","TELEPHONE":2122064161.0,"LATITUDE":40.80641,"LONGITUDE":-73.92101},{"PROVIDER OR FACILITY NAME":"LI ERIN HE-NING","NPI":1336596394.0,"PROFESSION OR SERVICE":"PHYSICIAN","PROVIDER SPECIALTY":"PSYCHIATRY (NOT CHILD)","SERVICE ADDRESS":"1090 AMSTERDAM AVE DEPARTMENT OF PSYCHIATRY","CITY":"NEW YORK","STATE":"NY","ZIP CODE":"10025-0000","COUNTY":"NEW YORK","TELEPHONE":2125233996.0,"LATITUDE":40.80528,"LONGITUDE":-73.96232},{"PROVIDER OR FACILITY NAME":"APPEL SUSANNE STERNBACH","NPI":1811958457.0,"PROFESSION OR SERVICE":"PHYSICIAN","PROVIDER SPECIALTY":"CHILD PSYCHIATRY","SERVICE ADDRESS":"12 W 96TH ST STE 1A","CITY":"NEW YORK","STATE":"NY","ZIP CODE":"10025-6509","COUNTY":"NEW YORK","TELEPHONE":2126663766.0,"LATITUDE":40.79169,"LONGITUDE":-73.96498},{"PROVIDER OR FACILITY NAME":"ARTHUR KAREN L","NPI":1518902519.0,"PROFESSION OR SERVICE":"CLINICAL SOCIAL WORKER","PROVIDER SPECIALTY":null,"SERVICE ADDRESS":"19 W 34TH ST PH","CITY":"NEW YORK","STATE":"NY","ZIP CODE":"10001-3006","COUNTY":"NEW YORK","TELEPHONE":2129477111.0,"LATITUDE":40.74876,"LONGITUDE":-73.98509},{"PROVIDER OR FACILITY NAME":"GABRIEL MARY LOUISE LARA","NPI":1063770998.0,"PROFESSION OR SERVICE":"MENTAL HEALTH COUNSELORS","PROVIDER SPECIALTY":null,"SERVICE ADDRESS":"TELEHEALTH SERVICES","CITY":"MIDDLE VILLAGE","STATE":"NY","ZIP CODE":"11379-1844","COUNTY":"QUEENS","TELEPHONE":null,"LATITUDE":40.71822,"LONGITUDE":-73.87967},{"PROVIDER OR FACILITY NAME":"HUANG ANDREW","NPI":1295969582.0,"PROFESSION OR SERVICE":"OCCUPATIONAL THERAPIST","PROVIDER SPECIALTY":null,"SERVICE ADDRESS":"209 BEACH 125TH ST","CITY":"BELLE HARBOR","STATE":"NY","ZIP CODE":"11694-1703","COUNTY":"QUEENS","TELEPHONE":7189456600.0,"LATITUDE":40.57768,"LONGITUDE":-73.84504},{"PROVIDER OR FACILITY NAME":"FREID THEA BALUYUT","NPI":1225584527.0,"PROFESSION OR SERVICE":"PHYSICAL THERAPIST","PROVIDER SPECIALTY":null,"SERVICE ADDRESS":"31-35 31ST ST","CITY":"ASTORIA","STATE":"NY","ZIP CODE":"11106-2591","COUNTY":"QUEENS","TELEPHONE":7182741300.0,"LATITUDE":40.76211,"LONGITUDE":-73.9249},{"PROVIDER OR FACILITY NAME":"LOMBARDO MICHELLE ROSE","NPI":1508452574.0,"PROFESSION OR SERVICE":"PHYSICAL THERAPIST","PROVIDER SPECIALTY":null,"SERVICE ADDRESS":"1243 WOODOW ROAD STE 323","CITY":"STATEN ISALND","STATE":"NY","ZIP CODE":"10309-0000","COUNTY":"RICHMOND","TELEPHONE":7189660111.0,"LATITUDE":40.53325,"LONGITUDE":-74.21489},{"PROVIDER OR FACILITY NAME":"MORALES ABIGAIL BELTRAN","NPI":1053532903.0,"PROFESSION OR SERVICE":"PHYSICAL THERAPIST","PROVIDER SPECIALTY":null,"SERVICE ADDRESS":"2555 NOSTRAND AVE","CITY":"BROOKLYN","STATE":"NY","ZIP CODE":"11210-4730","COUNTY":"KINGS","TELEPHONE":7189518800.0,"LATITUDE":40.62328,"LONGITUDE":-73.94609},{"PROVIDER OR FACILITY NAME":"SPINELLI JEAN MARIE","NPI":1629088786.0,"PROFESSION OR SERVICE":"CLINICAL PSYCHOLOGIST","PROVIDER SPECIALTY":null,"SERVICE ADDRESS":"64 GRETA PL","CITY":"STATEN ISLAND","STATE":"NY","ZIP CODE":"10301-3839","COUNTY":"RICHMOND","TELEPHONE":7183561337.0,"LATITUDE":40.62241,"LONGITUDE":-74.09088},{"PROVIDER OR FACILITY NAME":"KHROMCHENKO PAVEL","NPI":1386651081.0,"PROFESSION OR SERVICE":"PHYSICAL THERAPIST","PROVIDER SPECIALTY":null,"SERVICE ADDRESS":"799 E GUN HILL RD BSMT FL","CITY":"BRONX","STATE":"NY","ZIP CODE":"10467-6107","COUNTY":"BRONX","TELEPHONE":3478438008.0,"LATITUDE":40.8769,"LONGITUDE":-73.86462},{"PROVIDER OR FACILITY NAME":"AIREY CAITLIN MAE","NPI":1174257968.0,"PROFESSION OR SERVICE":"PHYSICAL THERAPIST","PROVIDER SPECIALTY":null,"SERVICE ADDRESS":"210 E 64TH ST FL 5","CITY":"NEW YORK","STATE":"NY","ZIP CODE":"10065-7471","COUNTY":"NEW YORK","TELEPHONE":2124344263.0,"LATITUDE":40.76451,"LONGITUDE":-73.96413},{"PROVIDER OR FACILITY NAME":"LEVY JAMEY B","NPI":1710107826.0,"PROFESSION OR SERVICE":"PHYSICIAN","PROVIDER SPECIALTY":"PSYCHIATRY (NOT CHILD)","SERVICE ADDRESS":"462 1ST AVE","CITY":"NEW YORK","STATE":"NY","ZIP CODE":"10016-9196","COUNTY":"NEW YORK","TELEPHONE":2125624141.0,"LATITUDE":40.73993,"LONGITUDE":-73.97618},{"PROVIDER OR FACILITY NAME":"NEW YORK PRESBYTERIAN HOSPITAL INC","NPI":1194832477.0,"PROFESSION OR SERVICE":"MENTAL HEALTH REHABILITATION","PROVIDER SPECIALTY":null,"SERVICE ADDRESS":"2580 AMSTERDAM AVE RM 104","CITY":"NEW YORK","STATE":"NY","ZIP CODE":"10040-3461","COUNTY":"NEW YORK","TELEPHONE":null,"LATITUDE":40.85225,"LONGITUDE":-73.928},{"PROVIDER OR FACILITY NAME":"MOHAMED IBRAHIM ZAKARIA","NPI":1841784378.0,"PROFESSION OR SERVICE":"PHYSICAL THERAPIST","PROVIDER SPECIALTY":null,"SERVICE ADDRESS":"353 OCEAN AVE","CITY":"BROOKLYN","STATE":"NY","ZIP CODE":"11226-1326","COUNTY":"KINGS","TELEPHONE":7189402100.0,"LATITUDE":40.65395,"LONGITUDE":-73.96162},{"PROVIDER OR FACILITY NAME":"STEWART SEAN MICHAEL","NPI":1851674295.0,"PROFESSION OR SERVICE":"CLINICAL SOCIAL WORKER","PROVIDER SPECIALTY":null,"SERVICE ADDRESS":"3518 BAINBRIDGE AVE","CITY":"BRONX","STATE":"NY","ZIP CODE":"10467-1402","COUNTY":"BRONX","TELEPHONE":8002753243.0,"LATITUDE":40.88132,"LONGITUDE":-73.87828},{"PROVIDER OR FACILITY NAME":"BALAOING VIC GUERRERO","NPI":1336318062.0,"PROFESSION OR SERVICE":"PHYSICAL THERAPIST","PROVIDER SPECIALTY":null,"SERVICE ADDRESS":"930 SHERIDAN AVE.  SUITE #5","CITY":"BRONX","STATE":"NY","ZIP CODE":"10451-3339","COUNTY":"BRONX","TELEPHONE":7189425133.0,"LATITUDE":40.82783,"LONGITUDE":-73.92022},{"PROVIDER OR FACILITY NAME":"KADAKIA ESHA","NPI":1881286300.0,"PROFESSION OR SERVICE":"PHYSICAL THERAPIST","PROVIDER SPECIALTY":null,"SERVICE ADDRESS":"1755 FOREST AVE","CITY":"STATEN ISLAND","STATE":"NY","ZIP CODE":"10303-2107","COUNTY":"RICHMOND","TELEPHONE":6468205669.0,"LATITUDE":40.62504,"LONGITUDE":-74.14707},{"PROVIDER OR FACILITY NAME":"GHALY BESHOY HARBY","NPI":1811315955.0,"PROFESSION OR SERVICE":"PHYSICAL THERAPIST","PROVIDER SPECIALTY":null,"SERVICE ADDRESS":"8600 SHORE FRONT PKWY","CITY":"ROCKAWAY BEACH","STATE":"NY","ZIP CODE":"11693-1828","COUNTY":"QUEENS","TELEPHONE":3472792516.0,"LATITUDE":40.58543,"LONGITUDE":-73.80976},{"PROVIDER OR FACILITY NAME":"BIGORNIA ANTHONY KAHRL ISAAC","NPI":1083083539.0,"PROFESSION OR SERVICE":"OCCUPATIONAL THERAPIST","PROVIDER SPECIALTY":null,"SERVICE ADDRESS":"311 SAINT NICHOLAS AVE","CITY":"RIDGEWOOD","STATE":"NY","ZIP CODE":"11385-2296","COUNTY":"QUEENS","TELEPHONE":7185099888.0,"LATITUDE":40.70221,"LONGITUDE":-73.91246},{"PROVIDER OR FACILITY NAME":"ADRIEN CHRISTINA YVROSE","NPI":1750855144.0,"PROFESSION OR SERVICE":"MENTAL HEALTH COUNSELORS","PROVIDER SPECIALTY":null,"SERVICE ADDRESS":"1441 BROADWAY FL 5","CITY":"NEW YORK","STATE":"NY","ZIP CODE":"10018-1905","COUNTY":"NEW YORK","TELEPHONE":6464101188.0,"LATITUDE":40.75474,"LONGITUDE":-73.98685},{"PROVIDER OR FACILITY NAME":"CESTARO JOSEPH","NPI":1942849401.0,"PROFESSION OR SERVICE":"PHYSICAL THERAPIST","PROVIDER SPECIALTY":null,"SERVICE ADDRESS":"1243 WOODROW RD 323","CITY":"STATEN ISLAND","STATE":"NY","ZIP CODE":"10309-1725","COUNTY":"RICHMOND","TELEPHONE":7189660111.0,"LATITUDE":40.54196,"LONGITUDE":-74.20606},{"PROVIDER OR FACILITY NAME":"NEW YORK PRESBYTERIAN QUEENS","NPI":1265478432.0,"PROFESSION OR SERVICE":"MENTAL HEALTH REHABILITATION","PROVIDER SPECIALTY":null,"SERVICE ADDRESS":"73-15 NORTHERN BLVD","CITY":"JACKSON HEIGHTS","STATE":"NY","ZIP CODE":"11372-1144","COUNTY":"QUEENS","TELEPHONE":null,"LATITUDE":40.75509,"LONGITUDE":-73.89308},{"PROVIDER OR FACILITY NAME":"MOLINARI VALERIE ROSE","NPI":1972019008.0,"PROFESSION OR SERVICE":"NURSE PRACTITIONER","PROVIDER SPECIALTY":"PSYCHIATRY (NOT CHILD)","SERVICE ADDRESS":"777 SEAVIEW AVE","CITY":"STATEN ISLAND","STATE":"NY","ZIP CODE":"10305-3409","COUNTY":"RICHMOND","TELEPHONE":7186672400.0,"LATITUDE":40.58104,"LONGITUDE":-74.08105},{"PROVIDER OR FACILITY NAME":"DUKHLENKO DENYS","NPI":1043737166.0,"PROFESSION OR SERVICE":"PHYSICAL THERAPIST","PROVIDER SPECIALTY":null,"SERVICE ADDRESS":"8718 BAY PKWY","CITY":"BROOKLYN","STATE":"NY","ZIP CODE":"11214-5272","COUNTY":"KINGS","TELEPHONE":7186762478.0,"LATITUDE":40.59963,"LONGITUDE":-73.99637},{"PROVIDER OR FACILITY NAME":"ASH MICHAEL","NPI":1386761179.0,"PROFESSION OR SERVICE":"CLINICAL SOCIAL WORKER","PROVIDER SPECIALTY":null,"SERVICE ADDRESS":"32 COURT ST STE 705","CITY":"BROOKLYN","STATE":"NY","ZIP CODE":"11201-4404","COUNTY":"KINGS","TELEPHONE":6462613215.0,"LATITUDE":40.69308,"LONGITUDE":-73.99084},{"PROVIDER OR FACILITY NAME":"GUTHEIT KAREN JILL","NPI":1710059472.0,"PROFESSION OR SERVICE":"CLINICAL PSYCHOLOGIST","PROVIDER SPECIALTY":null,"SERVICE ADDRESS":"1249 5TH AVE RM C-3","CITY":"NEW YORK","STATE":"NY","ZIP CODE":"10029-4413","COUNTY":"NEW YORK","TELEPHONE":2123601073.0,"LATITUDE":40.79405,"LONGITUDE":-73.95115},{"PROVIDER OR FACILITY NAME":"TERRUSA MELISSA ROSE","NPI":1518277870.0,"PROFESSION OR SERVICE":"PHYSICAL THERAPIST","PROVIDER SPECIALTY":null,"SERVICE ADDRESS":"33 RICHMOND HILL RD","CITY":"STATEN ISLAND","STATE":"NY","ZIP CODE":"10314-5950","COUNTY":"RICHMOND","TELEPHONE":7189826340.0,"LATITUDE":40.58835,"LONGITUDE":-74.16639},{"PROVIDER OR FACILITY NAME":"AN JUNG","NPI":1841939626.0,"PROFESSION OR SERVICE":"PHYSICAL THERAPIST","PROVIDER SPECIALTY":null,"SERVICE ADDRESS":"552 6TH AVE","CITY":"NEW YORK","STATE":"NY","ZIP CODE":"10011-2010","COUNTY":"NEW YORK","TELEPHONE":3479437647.0,"LATITUDE":40.73836,"LONGITUDE":-73.99598},{"PROVIDER OR FACILITY NAME":"BARNETT JACQUELINE YAACOVA PHD","NPI":1073613477.0,"PROFESSION OR SERVICE":"CLINICAL PSYCHOLOGIST","PROVIDER SPECIALTY":null,"SERVICE ADDRESS":"48 CEDAR ST","CITY":"BROOKLYN","STATE":"NY","ZIP CODE":"11221-3253","COUNTY":"KINGS","TELEPHONE":7182983822.0,"LATITUDE":40.69766,"LONGITUDE":-73.92642},{"PROVIDER OR FACILITY NAME":"MULLAN LOUISE MARY","NPI":1063643005.0,"PROFESSION OR SERVICE":"PHYSICIAN","PROVIDER SPECIALTY":"PSYCHIATRY (NOT CHILD)","SERVICE ADDRESS":"14 E 28TH ST FL 12","CITY":"NEW YORK","STATE":"NY","ZIP CODE":"10016-7448","COUNTY":"NEW YORK","TELEPHONE":2128035892.0,"LATITUDE":40.7442,"LONGITUDE":-73.98639},{"PROVIDER OR FACILITY NAME":"JEAN CARLTON LAMONT","NPI":1649657040.0,"PROFESSION OR SERVICE":"CLINICAL SOCIAL WORKER","PROVIDER SPECIALTY":null,"SERVICE ADDRESS":"36-11 21ST ST","CITY":"LONG ISLAND CITY","STATE":"NY","ZIP CODE":"11106-4505","COUNTY":"QUEENS","TELEPHONE":7184827772.0,"LATITUDE":40.7588,"LONGITUDE":-73.93756},{"PROVIDER OR FACILITY NAME":"WAGNER-WETZEL NANCY","NPI":1467495952.0,"PROFESSION OR SERVICE":"CLINICAL PSYCHOLOGIST","PROVIDER SPECIALTY":null,"SERVICE ADDRESS":"465 VILLA AVE","CITY":"STATEN ISLAND","STATE":"NY","ZIP CODE":"10302-1946","COUNTY":"RICHMOND","TELEPHONE":3472918600.0,"LATITUDE":40.62893,"LONGITUDE":-74.14314},{"PROVIDER OR FACILITY NAME":"SCOLLAN JAMES MICHAEL","NPI":1447501770.0,"PROFESSION OR SERVICE":"PHYSICAL THERAPIST","PROVIDER SPECIALTY":null,"SERVICE ADDRESS":"76 MELROSE AVE","CITY":"STATEN ISLAND","STATE":"NY","ZIP CODE":"10301-3629","COUNTY":"RICHMOND","TELEPHONE":7183561337.0,"LATITUDE":40.61902,"LONGITUDE":-74.10328},{"PROVIDER OR FACILITY NAME":"BARRY CAROL E","NPI":1104512243.0,"PROFESSION OR SERVICE":"PHYSICAL THERAPIST","PROVIDER SPECIALTY":null,"SERVICE ADDRESS":"65 COLUMBUS AVE STE A","CITY":"STATEN ISLAND","STATE":"NY","ZIP CODE":"10304-4325","COUNTY":"RICHMOND","TELEPHONE":7184483210.0,"LATITUDE":40.60103,"LONGITUDE":-74.0902},{"PROVIDER OR FACILITY NAME":"ABRAMSON ALLA","NPI":1114052602.0,"PROFESSION OR SERVICE":"PHYSICIAN","PROVIDER SPECIALTY":"CHILD PSYCHIATRY","SERVICE ADDRESS":"134 BRIGHTON 11TH ST","CITY":"BROOKLYN","STATE":"NY","ZIP CODE":"11235-5327","COUNTY":"KINGS","TELEPHONE":7186151780.0,"LATITUDE":40.57926,"LONGITUDE":-73.95834},{"PROVIDER OR FACILITY NAME":"ISMAIL AATEQA","NPI":1316388341.0,"PROFESSION OR SERVICE":"PHYSICIAN","PROVIDER SPECIALTY":"CHILD PSYCHIATRY","SERVICE ADDRESS":"270-05 76TH AVE","CITY":"NEW HYDE PARK","STATE":"NY","ZIP CODE":"11040-1402","COUNTY":"QUEENS","TELEPHONE":8883213627.0,"LATITUDE":40.75403,"LONGITUDE":-73.7059},{"PROVIDER OR FACILITY NAME":"MONTEFIORE MEDICAL CENTER","NPI":1952476988.0,"PROFESSION OR SERVICE":"MENTAL HEALTH REHABILITATION","PROVIDER SPECIALTY":null,"SERVICE ADDRESS":"1225 MORRIS PARK AVE","CITY":"BRONX","STATE":"NY","ZIP CODE":"10461-1929","COUNTY":"BRONX","TELEPHONE":null,"LATITUDE":40.85274,"LONGITUDE":-73.8464},{"PROVIDER OR FACILITY NAME":"FLORIO WILLIAM ANTHONY JR","NPI":1154426229.0,"PROFESSION OR SERVICE":"PHYSICIAN","PROVIDER SPECIALTY":"PSYCHIATRY (NOT CHILD)","SERVICE ADDRESS":"8316 4TH AVE","CITY":"BROOKLYN","STATE":"NY","ZIP CODE":"11209-4413","COUNTY":"KINGS","TELEPHONE":7188362460.0,"LATITUDE":40.62468,"LONGITUDE":-74.0277},{"PROVIDER OR FACILITY NAME":"KONG ISAIAH YANLOK","NPI":1437427937.0,"PROFESSION OR SERVICE":"CLINICAL SOCIAL WORKER","PROVIDER SPECIALTY":null,"SERVICE ADDRESS":"13172 40TH ROAD","CITY":"FLUSHING","STATE":"NY","ZIP CODE":"11354-5137","COUNTY":"QUEENS","TELEPHONE":7188867373.0,"LATITUDE":40.75648,"LONGITUDE":-73.83532},{"PROVIDER OR FACILITY NAME":"BETH ISRAEL MEDICAL CENTER","NPI":1174689665.0,"PROFESSION OR SERVICE":"MENTAL HEALTH REHABILITATION","PROVIDER SPECIALTY":null,"SERVICE ADDRESS":"45 RIVINGTON ST CELLAR","CITY":"NEW YORK","STATE":"NY","ZIP CODE":"10002-1304","COUNTY":"NEW YORK","TELEPHONE":2124202400.0,"LATITUDE":40.72076,"LONGITUDE":-73.99094},{"PROVIDER OR FACILITY NAME":"SHAH KHATIMA","NPI":1215108014.0,"PROFESSION OR SERVICE":"CLINICAL SOCIAL WORKER","PROVIDER SPECIALTY":null,"SERVICE ADDRESS":"39 BROADWAY RM 200","CITY":"NEW YORK","STATE":"NY","ZIP CODE":"10006-3039","COUNTY":"NEW YORK","TELEPHONE":2126495556.0,"LATITUDE":40.70647,"LONGITUDE":-74.0129},{"PROVIDER OR FACILITY NAME":"DESAI VRUSHALI MAHESH","NPI":1285213256.0,"PROFESSION OR SERVICE":"PHYSICAL THERAPIST","PROVIDER SPECIALTY":null,"SERVICE ADDRESS":"332 E 14TH ST","CITY":"NEW YORK","STATE":"NY","ZIP CODE":"10003-4243","COUNTY":"NEW YORK","TELEPHONE":2124813333.0,"LATITUDE":40.73195,"LONGITUDE":-73.98422},{"PROVIDER OR FACILITY NAME":"RAJANNA MADHU GUNDIGERE","NPI":1275626434.0,"PROFESSION OR SERVICE":"PHYSICIAN","PROVIDER SPECIALTY":"PSYCHIATRY (NOT CHILD)","SERVICE ADDRESS":"521 BEACH 20TH STREET","CITY":"FAR ROCKAWAY","STATE":"NY","ZIP CODE":"11691-3645","COUNTY":"QUEENS","TELEPHONE":7188698822.0,"LATITUDE":40.59888,"LONGITUDE":-73.75412},{"PROVIDER OR FACILITY NAME":"ELKIND DEBORAH H","NPI":1669948469.0,"PROFESSION OR SERVICE":"CLINICAL PSYCHOLOGIST","PROVIDER SPECIALTY":null,"SERVICE ADDRESS":"170 BROWN PL FL 4","CITY":"BRONX","STATE":"NY","ZIP CODE":"10454-4140","COUNTY":"BRONX","TELEPHONE":2122067140.0,"LATITUDE":40.80641,"LONGITUDE":-73.92101},{"PROVIDER OR FACILITY NAME":"LEVINE CHERYL R","NPI":1679748875.0,"PROFESSION OR SERVICE":"CLINICAL SOCIAL WORKER","PROVIDER SPECIALTY":null,"SERVICE ADDRESS":"1 BROOKDALE PLZ RM 1212","CITY":"BROOKLYN","STATE":"NY","ZIP CODE":"11212-3139","COUNTY":"KINGS","TELEPHONE":9178171014.0,"LATITUDE":40.65526,"LONGITUDE":-73.91229},{"PROVIDER OR FACILITY NAME":"ROMERO MICHELLE","NPI":1891017471.0,"PROFESSION OR SERVICE":"CLINICAL SOCIAL WORKER","PROVIDER SPECIALTY":null,"SERVICE ADDRESS":"7050 AUSTIN ST LL107A","CITY":"FOREST HILLS","STATE":"NY","ZIP CODE":"11375-4703","COUNTY":"QUEENS","TELEPHONE":9173274541.0,"LATITUDE":40.72016,"LONGITUDE":-73.84547},{"PROVIDER OR FACILITY NAME":"CASALME CZARISSA ESPANOL","NPI":1336788421.0,"PROFESSION OR SERVICE":"PHYSICAL THERAPIST","PROVIDER SPECIALTY":null,"SERVICE ADDRESS":"46-18 BROADWAY","CITY":"ASTORIA","STATE":"NY","ZIP CODE":"11103-1628","COUNTY":"QUEENS","TELEPHONE":7182744200.0,"LATITUDE":40.75643,"LONGITUDE":-73.9142},{"PROVIDER OR FACILITY NAME":"TAMBINI DAVID ERNEST","NPI":1972755171.0,"PROFESSION OR SERVICE":"NURSE PRACTITIONER","PROVIDER SPECIALTY":"CHILD PSYCHIATRY","SERVICE ADDRESS":"730 BRYANT AVE","CITY":"BRONX","STATE":"NY","ZIP CODE":"10474-6006","COUNTY":"BRONX","TELEPHONE":7185421537.0,"LATITUDE":40.81583,"LONGITUDE":-73.88575},{"PROVIDER OR FACILITY NAME":"DE SANCTIS VIRGINIA ANN","NPI":1609143932.0,"PROFESSION OR SERVICE":"CLINICAL PSYCHOLOGIST","PROVIDER SPECIALTY":null,"SERVICE ADDRESS":"550 1ST AVE","CITY":"NEW YORK","STATE":"NY","ZIP CODE":"10016-6402","COUNTY":"NEW YORK","TELEPHONE":6465580885.0,"LATITUDE":40.74225,"LONGITUDE":-73.9745},{"PROVIDER OR FACILITY NAME":"JAKOBOV MORIYA","NPI":1164978250.0,"PROFESSION OR SERVICE":"NURSE PRACTITIONER","PROVIDER SPECIALTY":"PSYCHIATRY (NOT CHILD)","SERVICE ADDRESS":"100 E 77TH ST","CITY":"NEW YORK","STATE":"NY","ZIP CODE":"10075-1850","COUNTY":"NEW YORK","TELEPHONE":2124343042.0,"LATITUDE":40.77408,"LONGITUDE":-73.96064},{"PROVIDER OR FACILITY NAME":"HAMILTON-MADISON HOUSE INC","NPI":1588610604.0,"PROFESSION OR SERVICE":"MENTAL HEALTH REHABILITATION","PROVIDER SPECIALTY":null,"SERVICE ADDRESS":"HAMILTON-MADISON CL 253 SOUTH ST FL 3","CITY":"NEW YORK","STATE":"NY","ZIP CODE":"10002-7827","COUNTY":"NEW YORK","TELEPHONE":61781005.0,"LATITUDE":40.71065,"LONGITUDE":-73.98429},{"PROVIDER OR FACILITY NAME":"DIAZ ESTEFANIA","NPI":1659675239.0,"PROFESSION OR SERVICE":"CLINICAL SOCIAL WORKER","PROVIDER SPECIALTY":null,"SERVICE ADDRESS":"134 N 4TH ST OFC 2010","CITY":"BROOKLYN","STATE":"NY","ZIP CODE":"11249-3296","COUNTY":"KINGS","TELEPHONE":6464507748.0,"LATITUDE":40.71604,"LONGITUDE":-73.95949},{"PROVIDER OR FACILITY NAME":"JUN HYUN JIN","NPI":1629488192.0,"PROFESSION OR SERVICE":"PHYSICAL THERAPIST","PROVIDER SPECIALTY":null,"SERVICE ADDRESS":"2430 DAVIDSON AVE FL 2","CITY":"BRONX","STATE":"NY","ZIP CODE":"10468-6364","COUNTY":"BRONX","TELEPHONE":7187332100.0,"LATITUDE":40.8619,"LONGITUDE":-73.90272},{"PROVIDER OR FACILITY NAME":"MASTELLONE ELIZABETH ANN","NPI":1841964897.0,"PROFESSION OR SERVICE":"PHYSICAL THERAPIST","PROVIDER SPECIALTY":null,"SERVICE ADDRESS":"95-25 QUEENS BLVD STE 3D","CITY":"REGO PARK","STATE":"NY","ZIP CODE":"11374-4510","COUNTY":"QUEENS","TELEPHONE":7189256212.0,"LATITUDE":40.73231,"LONGITUDE":-73.85714},{"PROVIDER OR FACILITY NAME":"DE JESUS AMANDA TEODORA","NPI":1396985438.0,"PROFESSION OR SERVICE":"CLINICAL SOCIAL WORKER","PROVIDER SPECIALTY":null,"SERVICE ADDRESS":"81 W 115TH ST","CITY":"NEW YORK","STATE":"NY","ZIP CODE":"10026-3138","COUNTY":"NEW YORK","TELEPHONE":2124260088.0,"LATITUDE":40.80074,"LONGITUDE":-73.94857},{"PROVIDER OR FACILITY NAME":"MAGAZINNIK MIKHAIL","NPI":1952320996.0,"PROFESSION OR SERVICE":"CLINICAL SOCIAL WORKER","PROVIDER SPECIALTY":null,"SERVICE ADDRESS":"2925A KINGS HWY","CITY":"BROOKLYN","STATE":"NY","ZIP CODE":"11229-1805","COUNTY":"KINGS","TELEPHONE":7183820045.0,"LATITUDE":40.61622,"LONGITUDE":-73.94477},{"PROVIDER OR FACILITY NAME":"ELBERG ADAM","NPI":1659324770.0,"PROFESSION OR SERVICE":"PHYSICAL THERAPIST","PROVIDER SPECIALTY":null,"SERVICE ADDRESS":"225 LIBERTY ST STE 221","CITY":"NEW YORK","STATE":"NY","ZIP CODE":"10281-1048","COUNTY":"NEW YORK","TELEPHONE":2127864108.0,"LATITUDE":40.71107,"LONGITUDE":-74.01478},{"PROVIDER OR FACILITY NAME":"SAHAGUN STEFAN","NPI":1144988627.0,"PROFESSION OR SERVICE":"PHYSICAL THERAPIST","PROVIDER SPECIALTY":null,"SERVICE ADDRESS":"4013 AVENUE U","CITY":"BROOKLYN","STATE":"NY","ZIP CODE":"11234-5117","COUNTY":"KINGS","TELEPHONE":7186924100.0,"LATITUDE":40.60866,"LONGITUDE":-73.92453},{"PROVIDER OR FACILITY NAME":"BUILES VANESSA","NPI":1750085049.0,"PROFESSION OR SERVICE":"NURSE PRACTITIONER","PROVIDER SPECIALTY":"CHILD PSYCHIATRY","SERVICE ADDRESS":"61-20 WOODSIDE AVE BSMT","CITY":"WOODSIDE","STATE":"NY","ZIP CODE":"10023-3055","COUNTY":"QUEENS","TELEPHONE":7186721705.0,"LATITUDE":40.74445,"LONGITUDE":-73.90281},{"PROVIDER OR FACILITY NAME":"RODRIGUES GUADALUPE","NPI":1437677937.0,"PROFESSION OR SERVICE":"CLINICAL SOCIAL WORKER","PROVIDER SPECIALTY":null,"SERVICE ADDRESS":"163-18 JAMAICA AVE","CITY":"JAMAICA","STATE":"NY","ZIP CODE":"11432-4901","COUNTY":"QUEENS","TELEPHONE":7182978000.0,"LATITUDE":40.70442,"LONGITUDE":-73.79648},{"PROVIDER OR FACILITY NAME":"FELDER MICHELLE JAIME","NPI":1790069474.0,"PROFESSION OR SERVICE":"CLINICAL SOCIAL WORKER","PROVIDER SPECIALTY":null,"SERVICE ADDRESS":"6565 FLATLAND AVE # C -105 SOUTH SHORE EDUCATIONAL COMPLEX","CITY":"BROOKLYN","STATE":"NY","ZIP CODE":"11236-3525","COUNTY":"KINGS","TELEPHONE":7184444565.0,"LATITUDE":40.63332,"LONGITUDE":-73.91685},{"PROVIDER OR FACILITY NAME":"STEFFENS LAURIE JEANNINE","NPI":1447626254.0,"PROFESSION OR SERVICE":"CLINICAL SOCIAL WORKER","PROVIDER SPECIALTY":null,"SERVICE ADDRESS":"115-70 LEFFERTS BLVD","CITY":"SOUTH OZONE PARK","STATE":"NY","ZIP CODE":"11420-2406","COUNTY":"QUEENS","TELEPHONE":7189472951.0,"LATITUDE":40.6754,"LONGITUDE":-73.81969},{"PROVIDER OR FACILITY NAME":"LIN XING XING","NPI":1346593753.0,"PROFESSION OR SERVICE":"OCCUPATIONAL THERAPIST","PROVIDER SPECIALTY":null,"SERVICE ADDRESS":"16 SUMNER PL","CITY":"BROOKLYN","STATE":"NY","ZIP CODE":"11206-4110","COUNTY":"KINGS","TELEPHONE":7183369500.0,"LATITUDE":40.70033,"LONGITUDE":-73.94096},{"PROVIDER OR FACILITY NAME":"SUTTON ALLEN D","NPI":1982628707.0,"PROFESSION OR SERVICE":"NURSE PRACTITIONER","PROVIDER SPECIALTY":"CHILD PSYCHIATRY","SERVICE ADDRESS":"116-06 MYRTLE AVE","CITY":"RICHMOND HILL","STATE":"NY","ZIP CODE":"11418-1748","COUNTY":"QUEENS","TELEPHONE":7182151952.0,"LATITUDE":40.70024,"LONGITUDE":-73.83302},{"PROVIDER OR FACILITY NAME":"KENNIS SAMANTHA LEIGH","NPI":1639597669.0,"PROFESSION OR SERVICE":"PHYSICIAN","PROVIDER SPECIALTY":"PSYCHIATRY (NOT CHILD)","SERVICE ADDRESS":"75-59 263RD ST","CITY":"GLEN OAKS","STATE":"NY","ZIP CODE":"11004-1150","COUNTY":"QUEENS","TELEPHONE":8883213627.0,"LATITUDE":40.74988,"LONGITUDE":-73.71198},{"PROVIDER OR FACILITY NAME":"MANDAL ANURON","NPI":1528415635.0,"PROFESSION OR SERVICE":"PHYSICIAN","PROVIDER SPECIALTY":"PSYCHIATRY (NOT CHILD)","SERVICE ADDRESS":"1ST AVENUE AT 16TH STREET","CITY":"NEW YORK","STATE":"NY","ZIP CODE":"10003-0000","COUNTY":"NEW YORK","TELEPHONE":2124202000.0,"LATITUDE":40.73147,"LONGITUDE":-73.98874},{"PROVIDER OR FACILITY NAME":"OTUFALE BUKKY OMOWUNMI","NPI":1659682920.0,"PROFESSION OR SERVICE":"NURSE PRACTITIONER","PROVIDER SPECIALTY":"PSYCHIATRY (NOT CHILD)","SERVICE ADDRESS":"2336 GRAND CONCOURSE","CITY":"BRONX","STATE":"NY","ZIP CODE":"10458-6903","COUNTY":"BRONX","TELEPHONE":7182200439.0,"LATITUDE":40.85806,"LONGITUDE":-73.89923},{"PROVIDER OR FACILITY NAME":"ABRAMSON ALLA","NPI":1114052602.0,"PROFESSION OR SERVICE":"PHYSICIAN","PROVIDER SPECIALTY":"CHILD PSYCHIATRY","SERVICE ADDRESS":"APT 1G 3045 BRIGHTON 12TH ST","CITY":"BROOKLYN","STATE":"NY","ZIP CODE":"11235-5741","COUNTY":"KINGS","TELEPHONE":7186151780.0,"LATITUDE":40.57911,"LONGITUDE":-73.95708},{"PROVIDER OR FACILITY NAME":"NERON NENA RELOJ","NPI":1558726984.0,"PROFESSION OR SERVICE":"PHYSICAL THERAPIST","PROVIDER SPECIALTY":null,"SERVICE ADDRESS":"63-26 99TH ST","CITY":"REGO PARK","STATE":"NY","ZIP CODE":"11374-1909","COUNTY":"QUEENS","TELEPHONE":3475862271.0,"LATITUDE":40.73223,"LONGITUDE":-73.85725},{"PROVIDER OR FACILITY NAME":"XU JING","NPI":1679581086.0,"PROFESSION OR SERVICE":"PHYSICIAN","PROVIDER SPECIALTY":"PSYCHIATRY (NOT CHILD)","SERVICE ADDRESS":"1300 WATERS PL","CITY":"BRONX","STATE":"NY","ZIP CODE":"10461-2799","COUNTY":"BRONX","TELEPHONE":null,"LATITUDE":40.84545,"LONGITUDE":-73.84083},{"PROVIDER OR FACILITY NAME":"CAMPISI LISA ASHLEY","NPI":1699059121.0,"PROFESSION OR SERVICE":"PHYSICAL THERAPIST","PROVIDER SPECIALTY":null,"SERVICE ADDRESS":"210 EAST 64TH STREET 5TH FLR","CITY":"NEW YORK","STATE":"NY","ZIP CODE":"10021-7471","COUNTY":"NEW YORK","TELEPHONE":2124344263.0,"LATITUDE":40.76451,"LONGITUDE":-73.96413},{"PROVIDER OR FACILITY NAME":"ROSS MARINA ELLEN","NPI":1861851693.0,"PROFESSION OR SERVICE":"CLINICAL PSYCHOLOGIST","PROVIDER SPECIALTY":null,"SERVICE ADDRESS":"83 MAIDEN LN FL 8","CITY":"NEW YORK","STATE":"NY","ZIP CODE":"10038-4812","COUNTY":"NEW YORK","TELEPHONE":2128953477.0,"LATITUDE":40.70746,"LONGITUDE":-74.00749},{"PROVIDER OR FACILITY NAME":"JOHNSTON CAROLINE","NPI":1366885808.0,"PROFESSION OR SERVICE":"CLINICAL SOCIAL WORKER","PROVIDER SPECIALTY":null,"SERVICE ADDRESS":"10 PLAZA ST E STE 1C","CITY":"BROOKLYN","STATE":"NY","ZIP CODE":"11238-4939","COUNTY":"KINGS","TELEPHONE":9085787503.0,"LATITUDE":40.67559,"LONGITUDE":-73.97051},{"PROVIDER OR FACILITY NAME":"EINSTEIN EVAN HY","NPI":1588161137.0,"PROFESSION OR SERVICE":"PHYSICIAN","PROVIDER SPECIALTY":"PSYCHIATRY (NOT CHILD)","SERVICE ADDRESS":"100 E 77TH ST","CITY":"NEW YORK","STATE":"NY","ZIP CODE":"10075-1850","COUNTY":"NEW YORK","TELEPHONE":2124342830.0,"LATITUDE":40.77408,"LONGITUDE":-73.96064},{"PROVIDER OR FACILITY NAME":"KLEIN REBECCA ILISE","NPI":1386093631.0,"PROFESSION OR SERVICE":"PHYSICIAN","PROVIDER SPECIALTY":"PSYCHIATRY (NOT CHILD)","SERVICE ADDRESS":"1090 AMSTERDAM AVE DEPARTMENT OF PSYCHIA","CITY":"NEW YORK","STATE":"NY","ZIP CODE":"10025-0000","COUNTY":"NEW YORK","TELEPHONE":2125233996.0,"LATITUDE":40.80528,"LONGITUDE":-73.96232},{"PROVIDER OR FACILITY NAME":"AHMAD MAHA","NPI":1710193610.0,"PROFESSION OR SERVICE":"PHYSICIAN","PROVIDER SPECIALTY":"CHILD PSYCHIATRY","SERVICE ADDRESS":"330 WEST 58TH ST STE 509","CITY":"NEW YORK","STATE":"NY","ZIP CODE":"10019-1817","COUNTY":"NEW YORK","TELEPHONE":2129945100.0,"LATITUDE":40.76768,"LONGITUDE":-73.98328},{"PROVIDER OR FACILITY NAME":"HOPE CENTER OPERATIONS LLC","NPI":1124410733.0,"PROFESSION OR SERVICE":"MENTAL HEALTH REHABILITATION","PROVIDER SPECIALTY":null,"SERVICE ADDRESS":"1401 UNIVERSITY AVE","CITY":"BRONX","STATE":"NY","ZIP CODE":"10452-4050","COUNTY":"BRONX","TELEPHONE":7184066333.0,"LATITUDE":40.84311,"LONGITUDE":-73.92524},{"PROVIDER OR FACILITY NAME":"RUIZ DANIEL ENRIQUE","NPI":1497406730.0,"PROFESSION OR SERVICE":"NURSE PRACTITIONER","PROVIDER SPECIALTY":"CHILD PSYCHIATRY","SERVICE ADDRESS":"462 FIRST AVE","CITY":"NEW YORK","STATE":"NY","ZIP CODE":"10016-9196","COUNTY":"NEW YORK","TELEPHONE":2125624141.0,"LATITUDE":40.73993,"LONGITUDE":-73.97618},{"PROVIDER OR FACILITY NAME":"WANG KEVIN","NPI":1548817521.0,"PROFESSION OR SERVICE":"NURSE PRACTITIONER","PROVIDER SPECIALTY":"CHILD PSYCHIATRY","SERVICE ADDRESS":"156 BEACH 9TH ST OHEL REGIONAL FAMILY CENTER","CITY":"FAR ROCKAWAY","STATE":"NY","ZIP CODE":"11691-5636","COUNTY":"QUEENS","TELEPHONE":7186863149.0,"LATITUDE":40.59547,"LONGITUDE":-73.74372},{"PROVIDER OR FACILITY NAME":"KEEFE JOHN RAYMOND","NPI":1265031488.0,"PROFESSION OR SERVICE":"CLINICAL PSYCHOLOGIST","PROVIDER SPECIALTY":null,"SERVICE ADDRESS":"3317 ROCHAMBEAU AVE","CITY":"BRONX","STATE":"NY","ZIP CODE":"10467-2846","COUNTY":"BRONX","TELEPHONE":7189202587.0,"LATITUDE":40.87818,"LONGITUDE":-73.88059},{"PROVIDER OR FACILITY NAME":"OWENS MARK STEVEN MD","NPI":1922218015.0,"PROFESSION OR SERVICE":"PHYSICIAN","PROVIDER SPECIALTY":"CHILD PSYCHIATRY","SERVICE ADDRESS":"567 KINGSTON AVE","CITY":"BROOKLYN","STATE":"NY","ZIP CODE":"11203-1707","COUNTY":"KINGS","TELEPHONE":7184982500.0,"LATITUDE":40.65962,"LONGITUDE":-73.9424},{"PROVIDER OR FACILITY NAME":"GROSH JOSEPH","NPI":1639658784.0,"PROFESSION OR SERVICE":"MENTAL HEALTH COUNSELORS","PROVIDER SPECIALTY":null,"SERVICE ADDRESS":"555 LEFFERTS AVE RM 5","CITY":"BROOKLYN","STATE":"NY","ZIP CODE":"11225-4543","COUNTY":"KINGS","TELEPHONE":3477701826.0,"LATITUDE":40.6629,"LONGITUDE":-73.94349},{"PROVIDER OR FACILITY NAME":"LEGGETT CHRISTOPHER F","NPI":1659443125.0,"PROFESSION OR SERVICE":"NURSE PRACTITIONER","PROVIDER SPECIALTY":"CHILD PSYCHIATRY","SERVICE ADDRESS":"1249 5TH AVE","CITY":"NEW YORK","STATE":"NY","ZIP CODE":"10029-4413","COUNTY":"NEW YORK","TELEPHONE":2123601000.0,"LATITUDE":40.79405,"LONGITUDE":-73.95115},{"PROVIDER OR FACILITY NAME":"CRECCA MELISSA MARIE LENA","NPI":1194198689.0,"PROFESSION OR SERVICE":"CLINICAL SOCIAL WORKER","PROVIDER SPECIALTY":null,"SERVICE ADDRESS":"9131 QUEENS BLVD STE 222","CITY":"ELMHURST","STATE":"NY","ZIP CODE":"11373-5511","COUNTY":"QUEENS","TELEPHONE":7188963400.0,"LATITUDE":40.7337,"LONGITUDE":-73.86935},{"PROVIDER OR FACILITY NAME":"CELIKOYAR MELODI","NPI":1750840294.0,"PROFESSION OR SERVICE":"CLINICAL SOCIAL WORKER","PROVIDER SPECIALTY":null,"SERVICE ADDRESS":"144-15 68TH RD","CITY":"FLUSHING","STATE":"NY","ZIP CODE":"11367-1330","COUNTY":"QUEENS","TELEPHONE":9732640023.0,"LATITUDE":40.73289,"LONGITUDE":-73.82364},{"PROVIDER OR FACILITY NAME":"GURTOVY MARK","NPI":1053332072.0,"PROFESSION OR SERVICE":"PHYSICIAN","PROVIDER SPECIALTY":"PSYCHIATRY (NOT CHILD)","SERVICE ADDRESS":"APT 5F 3706 80TH ST","CITY":"JACKSON HEIGHTS","STATE":"NY","ZIP CODE":"11372-6812","COUNTY":"QUEENS","TELEPHONE":7185655523.0,"LATITUDE":40.74924,"LONGITUDE":-73.88658},{"PROVIDER OR FACILITY NAME":"NEW YORK PRESBYTERIAN HOSPITAL","NPI":1083633036.0,"PROFESSION OR SERVICE":"MENTAL HEALTH REHABILITATION","PROVIDER SPECIALTY":null,"SERVICE ADDRESS":"53 W 23RD ST","CITY":"NEW YORK","STATE":"NY","ZIP CODE":"10010-4204","COUNTY":"NEW YORK","TELEPHONE":2127467905.0,"LATITUDE":40.74234,"LONGITUDE":-73.99123},{"PROVIDER OR FACILITY NAME":"PREDESCU IULIANA","NPI":1801209176.0,"PROFESSION OR SERVICE":"PHYSICIAN","PROVIDER SPECIALTY":"PSYCHIATRY (NOT CHILD)","SERVICE ADDRESS":"1545 ATLANTIC AVE","CITY":"BROOKLYN","STATE":"NY","ZIP CODE":"11213-1122","COUNTY":"KINGS","TELEPHONE":7186134000.0,"LATITUDE":40.67797,"LONGITUDE":-73.93697},{"PROVIDER OR FACILITY NAME":"SCALLON RICHARD J","NPI":1952323164.0,"PROFESSION OR SERVICE":"CLINICAL PSYCHOLOGIST","PROVIDER SPECIALTY":null,"SERVICE ADDRESS":"110-30 221ST ST","CITY":"QUEENS VILLAGE","STATE":"NY","ZIP CODE":"11429-2513","COUNTY":"QUEENS","TELEPHONE":7184641800.0,"LATITUDE":40.70646,"LONGITUDE":-73.73634},{"PROVIDER OR FACILITY NAME":"COMMUNITY ACCESS INC","NPI":1700085719.0,"PROFESSION OR SERVICE":"MENTAL HEALTH REHABILITATION","PROVIDER SPECIALTY":null,"SERVICE ADDRESS":"3251 THIRD AVE FL 2","CITY":"BRONX","STATE":"NY","ZIP CODE":"10456-6943","COUNTY":"BRONX","TELEPHONE":null,"LATITUDE":40.8241,"LONGITUDE":-73.90882},{"PROVIDER OR FACILITY NAME":"PISHANIDAR SAMMY DANIEL","NPI":1366783532.0,"PROFESSION OR SERVICE":"PHYSICIAN","PROVIDER SPECIALTY":"PSYCHIATRY & NEUROLOGY","SERVICE ADDRESS":"72-06 NORTHERN BLVD 2ND FLOOR","CITY":"JACKSON HEIGHTS","STATE":"NY","ZIP CODE":"11372-1049","COUNTY":"QUEENS","TELEPHONE":7186701512.0,"LATITUDE":40.75434,"LONGITUDE":-73.89433},{"PROVIDER OR FACILITY NAME":"CASALME CZARISSA ESPANOL","NPI":1336788421.0,"PROFESSION OR SERVICE":"PHYSICAL THERAPIST","PROVIDER SPECIALTY":null,"SERVICE ADDRESS":"94-42 60TH AVE","CITY":"ELMHURST","STATE":"NY","ZIP CODE":"11373-5070","COUNTY":"QUEENS","TELEPHONE":9143887100.0,"LATITUDE":40.7344,"LONGITUDE":-73.86566}]